[
  {
    "city": "Tokyo",
    "lat": 35.6895,
    "lng": 139.6917,
    "country": "Japan",
    "population": 37435191
  },
  {
    "city": "Delhi",
    "lat": 28.6139,
    "lng": 77.209,
    "country": "India",
    "population": 29399141
  },
  {
    "city": "Shanghai",
    "lat": 31.2304,
    "lng": 121.4737,
    "country": "China",
    "population": 26317104
  },
  {
    "city": "São Paulo",
    "lat": -23.5505,
    "lng": -46.6333,
    "country": "Brazil",
    "population": 21846507
  },
  {
    "city": "Mexico City",
    "lat": 19.4326,
    "lng": -99.1332,
    "country": "Mexico",
    "population": 21671908
  },
  {
    "city": "Cairo",
    "lat": 30.0444,
    "lng": 31.2357,
    "country": "Egypt",
    "population": 20484965
  },
  {
    "city": "Mumbai",
    "lat": 19.076,
    "lng": 72.8777,
    "country": "India",
    "population": 20185064
  },
  {
    "city": "Beijing",
    "lat": 39.9042,
    "lng": 116.4074,
    "country": "China",
    "population": 20035455
  },
  {
    "city": "Dhaka",
    "lat": 23.8103,
    "lng": 90.4125,
    "country": "Bangladesh",
    "population": 20283552
  },
  {
    "city": "Osaka",
    "lat": 34.6937,
    "lng": 135.5023,
    "country": "Japan",
    "population": 19222665
  },
  {
    "city": "New York",
    "lat": 40.7128,
    "lng": -74.006,
    "country": "United States",
    "population": 18804000
  },
  {
    "city": "Karachi",
    "lat": 24.8607,
    "lng": 67.0011,
    "country": "Pakistan",
    "population": 15741000
  },
  {
    "city": "Buenos Aires",
    "lat": -34.6037,
    "lng": -58.3816,
    "country": "Argentina",
    "population": 15057000
  },
  {
    "city": "Chongqing",
    "lat": 29.563,
    "lng": 106.5516,
    "country": "China",
    "population": 15354000
  },
  {
    "city": "Istanbul",
    "lat": 41.0082,
    "lng": 28.9784,
    "country": "Turkey",
    "population": 15029231
  },
  {
    "city": "Kolkata",
    "lat": 22.5726,
    "lng": 88.3639,
    "country": "India",
    "population": 14755000
  },
  {
    "city": "Manila",
    "lat": 14.5995,
    "lng": 120.9842,
    "country": "Philippines",
    "population": 13698889
  },
  {
    "city": "Lagos",
    "lat": 6.5244,
    "lng": 3.3792,
    "country": "Nigeria",
    "population": 13903620
  },
  {
    "city": "Rio de Janeiro",
    "lat": -22.9068,
    "lng": -43.1729,
    "country": "Brazil",
    "population": 13374275
  },
  {
    "city": "Tianjin",
    "lat": 39.0842,
    "lng": 117.2008,
    "country": "China",
    "population": 13589000
  },
  {
    "city": "Kinshasa",
    "lat": -4.4419,
    "lng": 15.2663,
    "country": "Congo (Kinshasa)",
    "population": 13171000
  },
  {
    "city": "Guangzhou",
    "lat": 23.1291,
    "lng": 113.2644,
    "country": "China",
    "population": 13081000
  },
  {
    "city": "Los Angeles",
    "lat": 34.0522,
    "lng": -118.2437,
    "country": "United States",
    "population": 12447000
  },
  {
    "city": "Moscow",
    "lat": 55.7558,
    "lng": 37.6173,
    "country": "Russia",
    "population": 12506468
  },
  {
    "city": "Shenzhen",
    "lat": 22.5431,
    "lng": 114.0579,
    "country": "China",
    "population": 12356000
  },
  {
    "city": "Lahore",
    "lat": 31.5204,
    "lng": 74.3587,
    "country": "Pakistan",
    "population": 12188000
  },
  {
    "city": "Bangalore",
    "lat": 12.9716,
    "lng": 77.5946,
    "country": "India",
    "population": 11889000
  },
  {
    "city": "Paris",
    "lat": 48.8566,
    "lng": 2.3522,
    "country": "France",
    "population": 11017000
  },
  {
    "city": "Bogotá",
    "lat": 4.711,
    "lng": -74.0721,
    "country": "Colombia",
    "population": 10778000
  },
  {
    "city": "Jakarta",
    "lat": -6.2088,
    "lng": 106.8456,
    "country": "Indonesia",
    "population": 10770487
  },
  {
    "city": "Chennai",
    "lat": 13.0827,
    "lng": 80.2707,
    "country": "India",
    "population": 10728000
  },
  {
    "city": "Lima",
    "lat": -12.0464,
    "lng": -77.0428,
    "country": "Peru",
    "population": 10556000
  },
  {
    "city": "Bangkok",
    "lat": 13.7563,
    "lng": 100.5018,
    "country": "Thailand",
    "population": 10377000
  },
  {
    "city": "Seoul",
    "lat": 37.5665,
    "lng": 126.978,
    "country": "South Korea",
    "population": 9963000
  },
  {
    "city": "Nagoya",
    "lat": 35.1815,
    "lng": 136.9066,
    "country": "Japan",
    "population": 9557000
  },
  {
    "city": "Hyderabad",
    "lat": 17.385,
    "lng": 78.4867,
    "country": "India",
    "population": 9482000
  },
  {
    "city": "London",
    "lat": 51.5074,
    "lng": -0.1278,
    "country": "United Kingdom",
    "population": 9176530
  },
  {
    "city": "Tehran",
    "lat": 35.6892,
    "lng": 51.389,
    "country": "Iran",
    "population": 8846782
  },
  {
    "city": "Chicago",
    "lat": 41.8781,
    "lng": -87.6298,
    "country": "United States",
    "population": 8865000
  },
  {
    "city": "Chengdu",
    "lat": 30.5728,
    "lng": 104.0668,
    "country": "China",
    "population": 8819000
  },
  {
    "city": "Nanjing",
    "lat": 32.0603,
    "lng": 118.7969,
    "country": "China",
    "population": 8436000
  },
  {
    "city": "Wuhan",
    "lat": 30.5928,
    "lng": 114.3055,
    "country": "China",
    "population": 8363000
  },
  {
    "city": "Ho Chi Minh City",
    "lat": 10.8231,
    "lng": 106.6297,
    "country": "Vietnam",
    "population": 8426000
  },
  {
    "city": "Luanda",
    "lat": -8.8399,
    "lng": 13.2894,
    "country": "Angola",
    "population": 8044000
  },
  {
    "city": "Ahmedabad",
    "lat": 23.0225,
    "lng": 72.5714,
    "country": "India",
    "population": 7891000
  },
  {
    "city": "Kuala Lumpur",
    "lat": 3.139,
    "lng": 101.6869,
    "country": "Malaysia",
    "population": 7780000
  },
  {
    "city": "Xi'an",
    "lat": 34.3416,
    "lng": 108.9402,
    "country": "China",
    "population": 7856000
  },
  {
    "city": "Hong Kong",
    "lat": 22.3193,
    "lng": 114.1694,
    "country": "Hong Kong",
    "population": 7482500
  },
  {
    "city": "Dongguan",
    "lat": 23.0205,
    "lng": 113.7518,
    "country": "China",
    "population": 7469000
  },
  {
    "city": "Hangzhou",
    "lat": 30.2741,
    "lng": 120.1551,
    "country": "China",
    "population": 7433000
  },
  {
    "city": "Foshan",
    "lat": 23.0215,
    "lng": 113.1214,
    "country": "China",
    "population": 7352000
  },
  {
    "city": "Shenyang",
    "lat": 41.8057,
    "lng": 123.4315,
    "country": "China",
    "population": 7204000
  },
  {
    "city": "Riyadh",
    "lat": 24.7136,
    "lng": 46.6753,
    "country": "Saudi Arabia",
    "population": 7009100
  },
  {
    "city": "Baghdad",
    "lat": 33.3152,
    "lng": 44.3661,
    "country": "Iraq",
    "population": 6960000
  },
  {
    "city": "Santiago",
    "lat": -33.4489,
    "lng": -70.6693,
    "country": "Chile",
    "population": 6719000
  },
  {
    "city": "Surat",
    "lat": 21.1702,
    "lng": 72.8311,
    "country": "India",
    "population": 6694000
  },
  {
    "city": "Madrid",
    "lat": 40.4168,
    "lng": -3.7038,
    "country": "Spain",
    "population": 6618000
  },
  {
    "city": "Suzhou",
    "lat": 31.299,
    "lng": 120.5853,
    "country": "China",
    "population": 6539000
  },
  {
    "city": "Pune",
    "lat": 18.5204,
    "lng": 73.8567,
    "country": "India",
    "population": 6439000
  },
  {
    "city": "Harbin",
    "lat": 45.8038,
    "lng": 126.535,
    "country": "China",
    "population": 6387000
  },
  {
    "city": "Houston",
    "lat": 29.7604,
    "lng": -95.3698,
    "country": "United States",
    "population": 6310000
  },
  {
    "city": "Dallas",
    "lat": 32.7767,
    "lng": -96.797,
    "country": "United States",
    "population": 6301000
  },
  {
    "city": "Toronto",
    "lat": 43.6532,
    "lng": -79.3832,
    "country": "Canada",
    "population": 6197000
  },
  {
    "city": "Dar es Salaam",
    "lat": -6.7924,
    "lng": 39.2083,
    "country": "Tanzania",
    "population": 6368000
  },
  {
    "city": "Miami",
    "lat": 25.7617,
    "lng": -80.1918,
    "country": "United States",
    "population": 6158000
  },
  {
    "city": "Belo Horizonte",
    "lat": -19.9167,
    "lng": -43.9345,
    "country": "Brazil",
    "population": 6006000
  },
  {
    "city": "Singapore",
    "lat": 1.3521,
    "lng": 103.8198,
    "country": "Singapore",
    "population": 5866139
  },
  {
    "city": "Philadelphia",
    "lat": 39.9526,
    "lng": -75.1652,
    "country": "United States",
    "population": 5698000
  },
  {
    "city": "Atlanta",
    "lat": 33.749,
    "lng": -84.388,
    "country": "United States",
    "population": 5618000
  },
  {
    "city": "Fukuoka",
    "lat": 33.5904,
    "lng": 130.4017,
    "country": "Japan",
    "population": 5552000
  },
  {
    "city": "Khartoum",
    "lat": 15.5007,
    "lng": 32.5599,
    "country": "Sudan",
    "population": 5535000
  },
  {
    "city": "Barcelona",
    "lat": 41.3851,
    "lng": 2.1734,
    "country": "Spain",
    "population": 5515000
  },
  {
    "city": "Johannesburg",
    "lat": -26.2041,
    "lng": 28.0473,
    "country": "South Africa",
    "population": 5635000
  },
  {
    "city": "Saint Petersburg",
    "lat": 59.9311,
    "lng": 30.3609,
    "country": "Russia",
    "population": 5383890
  },
  {
    "city": "Qingdao",
    "lat": 36.0671,
    "lng": 120.3826,
    "country": "China",
    "population": 5366000
  },
  {
    "city": "Dalian",
    "lat": 38.914,
    "lng": 121.6147,
    "country": "China",
    "population": 5236000
  },
  {
    "city": "Washington, D.C.",
    "lat": 38.9072,
    "lng": -77.0369,
    "country": "United States",
    "population": 5207000
  },
  {
    "city": "Yangon",
    "lat": 16.8409,
    "lng": 96.1735,
    "country": "Myanmar",
    "population": 5209000
  },
  {
    "city": "Alexandria",
    "lat": 31.2001,
    "lng": 29.9187,
    "country": "Egypt",
    "population": 5107000
  },
  {
    "city": "Jinan",
    "lat": 36.6512,
    "lng": 117.1205,
    "country": "China",
    "population": 5052000
  },
  {
    "city": "Guadalajara",
    "lat": 20.6597,
    "lng": -103.3496,
    "country": "Mexico",
    "population": 5023000
  },
  {
    "city": "Sydney",
    "lat": -33.8688,
    "lng": 151.2093,
    "country": "Australia",
    "population": 5312163
  },
  {
    "city": "Ankara",
    "lat": 39.9334,
    "lng": 32.8597,
    "country": "Turkey",
    "population": 5503985
  },
  {
    "city": "Melbourne",
    "lat": -37.8136,
    "lng": 144.9631,
    "country": "Australia",
    "population": 5078190
  },
  {
    "city": "Berlin",
    "lat": 52.52,
    "lng": 13.405,
    "country": "Germany",
    "population": 3644826
  },
  {
    "city": "Rome",
    "lat": 41.9028,
    "lng": 12.4964,
    "country": "Italy",
    "population": 2872800
  },
  {
    "city": "Cape Town",
    "lat": -33.9249,
    "lng": 18.4241,
    "country": "South Africa",
    "population": 4488545
  },
  {
    "city": "Montreal",
    "lat": 45.5017,
    "lng": -73.5673,
    "country": "Canada",
    "population": 4220566
  },
  {
    "city": "Vancouver",
    "lat": 49.2827,
    "lng": -123.1207,
    "country": "Canada",
    "population": 2581000
  },
  {
    "city": "Boston",
    "lat": 42.3601,
    "lng": -71.0589,
    "country": "United States",
    "population": 4875392
  },
  {
    "city": "Phoenix",
    "lat": 33.4484,
    "lng": -112.074,
    "country": "United States",
    "population": 4857962
  },
  {
    "city": "Detroit",
    "lat": 42.3314,
    "lng": -83.0458,
    "country": "United States",
    "population": 3734090
  },
  {
    "city": "Seattle",
    "lat": 47.6062,
    "lng": -122.3321,
    "country": "United States",
    "population": 3979840
  },
  {
    "city": "San Francisco",
    "lat": 37.7749,
    "lng": -122.4194,
    "country": "United States",
    "population": 3318000
  },
  {
    "city": "San Diego",
    "lat": 32.7157,
    "lng": -117.1611,
    "country": "United States",
    "population": 3343364
  },
  {
    "city": "Minneapolis",
    "lat": 44.9778,
    "lng": -93.265,
    "country": "United States",
    "population": 2933000
  },
  {
    "city": "Tampa",
    "lat": 27.9506,
    "lng": -82.4572,
    "country": "United States",
    "population": 2891000
  },
  {
    "city": "Denver",
    "lat": 39.7392,
    "lng": -104.9903,
    "country": "United States",
    "population": 2888000
  },
  {
    "city": "Kyiv",
    "lat": 50.4501,
    "lng": 30.5234,
    "country": "Ukraine",
    "population": 2952301
  },
  {
    "city": "Nairobi",
    "lat": -1.2921,
    "lng": 36.8219,
    "country": "Kenya",
    "population": 4397073
  },
  {
    "city": "Addis Ababa",
    "lat": 9.0192,
    "lng": 38.7525,
    "country": "Ethiopia",
    "population": 3384569
  },
  {
    "city": "Casablanca",
    "lat": 33.5731,
    "lng": -7.5898,
    "country": "Morocco",
    "population": 3359818
  },
  {
    "city": "Accra",
    "lat": 5.6037,
    "lng": -0.187,
    "country": "Ghana",
    "population": 2291352
  },
  {
    "city": "Jeddah",
    "lat": 21.4858,
    "lng": 39.1925,
    "country": "Saudi Arabia",
    "population": 3976000
  },
  {
    "city": "Kuwait City",
    "lat": 29.3759,
    "lng": 47.9774,
    "country": "Kuwait",
    "population": 3000000
  },
  {
    "city": "Dubai",
    "lat": 25.2048,
    "lng": 55.2708,
    "country": "United Arab Emirates",
    "population": 2833079
  },
  {
    "city": "Caracas",
    "lat": 10.4806,
    "lng": -66.9036,
    "country": "Venezuela",
    "population": 2944000
  },
  {
    "city": "Brasília",
    "lat": -15.7942,
    "lng": -47.8825,
    "country": "Brazil",
    "population": 3015268
  },
  {
    "city": "Salvador",
    "lat": -12.9777,
    "lng": -38.5016,
    "country": "Brazil",
    "population": 2872347
  },
  {
    "city": "Fortaleza",
    "lat": -3.7319,
    "lng": -38.5267,
    "country": "Brazil",
    "population": 2669342
  },
  {
    "city": "Recife",
    "lat": -8.0476,
    "lng": -34.877,
    "country": "Brazil",
    "population": 1637853
  },
  {
    "city": "Curitiba",
    "lat": -25.4284,
    "lng": -49.2733,
    "country": "Brazil",
    "population": 1933105
  },
  {
    "city": "Manaus",
    "lat": -3.119,
    "lng": -60.0217,
    "country": "Brazil",
    "population": 2182763
  },
  {
    "city": "Medellín",
    "lat": 6.2476,
    "lng": -75.5658,
    "country": "Colombia",
    "population": 2529403
  },
  {
    "city": "Cali",
    "lat": 3.4516,
    "lng": -76.532,
    "country": "Colombia",
    "population": 2471474
  },
  {
    "city": "Maracaibo",
    "lat": 10.642,
    "lng": -71.6232,
    "country": "Venezuela",
    "population": 1551593
  },
  {
    "city": "Guayaquil",
    "lat": -2.171,
    "lng": -79.9224,
    "country": "Ecuador",
    "population": 2698077
  },
  {
    "city": "Quito",
    "lat": -0.1807,
    "lng": -78.4678,
    "country": "Ecuador",
    "population": 1899912
  },
  {
    "city": "Montevideo",
    "lat": -34.9011,
    "lng": -56.1645,
    "country": "Uruguay",
    "population": 1319108
  },
  {
    "city": "Havana",
    "lat": 23.1136,
    "lng": -82.3666,
    "country": "Cuba",
    "population": 2131480
  },
  {
    "city": "Panama City",
    "lat": 8.9824,
    "lng": -79.5199,
    "country": "Panama",
    "population": 880691
  },
  {
    "city": "San Jose",
    "lat": 9.9281,
    "lng": -84.0907,
    "country": "Costa Rica",
    "population": 333980
  },
  {
    "city": "Kingston",
    "lat": 17.9712,
    "lng": -76.793,
    "country": "Jamaica",
    "population": 1190746
  },
  {
    "city": "Auckland",
    "lat": -36.8485,
    "lng": 174.7633,
    "country": "New Zealand",
    "population": 1657000
  },
  {
    "city": "Perth",
    "lat": -31.9505,
    "lng": 115.8605,
    "country": "Australia",
    "population": 2059484
  },
  {
    "city": "Brisbane",
    "lat": -27.4698,
    "lng": 153.0251,
    "country": "Australia",
    "population": 2280000
  },
  {
    "city": "Adelaide",
    "lat": -34.9285,
    "lng": 138.6007,
    "country": "Australia",
    "population": 1345777
  },
  {
    "city": "Helsinki",
    "lat": 60.1699,
    "lng": 24.9384,
    "country": "Finland",
    "population": 631695
  },
  {
    "city": "Stockholm",
    "lat": 59.3293,
    "lng": 18.0686,
    "country": "Sweden",
    "population": 975904
  },
  {
    "city": "Oslo",
    "lat": 59.9139,
    "lng": 10.7522,
    "country": "Norway",
    "population": 634293
  },
  {
    "city": "Copenhagen",
    "lat": 55.6761,
    "lng": 12.5683,
    "country": "Denmark",
    "population": 602481
  },
  {
    "city": "Dublin",
    "lat": 53.3498,
    "lng": -6.2603,
    "country": "Ireland",
    "population": 544107
  },
  {
    "city": "Amsterdam",
    "lat": 52.3676,
    "lng": 4.9041,
    "country": "Netherlands",
    "population": 821752
  },
  {
    "city": "Brussels",
    "lat": 50.8503,
    "lng": 4.3517,
    "country": "Belgium",
    "population": 1208542
  },
  {
    "city": "Vienna",
    "lat": 48.2082,
    "lng": 16.3738,
    "country": "Austria",
    "population": 1897491
  },
  {
    "city": "Zurich",
    "lat": 47.3769,
    "lng": 8.5417,
    "country": "Switzerland",
    "population": 402762
  },
  {
    "city": "Prague",
    "lat": 50.0755,
    "lng": 14.4378,
    "country": "Czech Republic",
    "population": 1309000
  },
  {
    "city": "Warsaw",
    "lat": 52.2297,
    "lng": 21.0122,
    "country": "Poland",
    "population": 1790658
  },
  {
    "city": "Budapest",
    "lat": 47.4979,
    "lng": 19.0402,
    "country": "Hungary",
    "population": 1752286
  },
  {
    "city": "Athens",
    "lat": 37.9838,
    "lng": 23.7275,
    "country": "Greece",
    "population": 664046
  },
  {
    "city": "Lisbon",
    "lat": 38.7223,
    "lng": -9.1393,
    "country": "Portugal",
    "population": 504718
  },
  {
    "city": "Munich",
    "lat": 48.1351,
    "lng": 11.582,
    "country": "Germany",
    "population": 1471508
  },
  {
    "city": "Hamburg",
    "lat": 53.5511,
    "lng": 9.9937,
    "country": "Germany",
    "population": 1841179
  }
]
